<?xml version="1.0" encoding="utf-8"?>
<ArrayOfVolunteer>
  <Volunteer>
    <Id>808621403</Id>
    <Name>Pnina</Name>
    <Email>Pnina@gmail.com</Email>
    <Phone>0528976524</Phone>
    <IsActive>true</IsActive>
    <Role>volunteer</Role>
    <MaximumDistance>47</MaximumDistance>
    <Password>AuLCPnU/Dkee+KPAnwWhuwkZ2Og7b30RcdHlibwmp58=</Password>
    <Adress>Tel Aviv, Rothschild Blvd.</Adress>
    <Longitude>34.7818</Longitude>
    <Latitude>32.0853</Latitude>
    <DistanceType>airDistance</DistanceType>
  </Volunteer>
  <Volunteer>
    <Id>357079235</Id>
    <Name>Shira</Name>
    <Email>Shira@gmail.com</Email>
    <Phone>0541238745</Phone>
    <IsActive>true</IsActive>
    <Role>volunteer</Role>
    <MaximumDistance>35</MaximumDistance>
    <Password>koZqnE7U00y0FabM9KkzWePge+FB2LROuShBTSJ4PeE=</Password>
    <Adress>Haifa, Carmel Beach</Adress>
    <Longitude>34.9896</Longitude>
    <Latitude>32.794</Latitude>
    <DistanceType>airDistance</DistanceType>
  </Volunteer>
  <Volunteer>
    <Id>918664319</Id>
    <Name>Chaya</Name>
    <Email>Chaya@gmail.com</Email>
    <Phone>0535491235</Phone>
    <IsActive>true</IsActive>
    <Role>volunteer</Role>
    <MaximumDistance>22</MaximumDistance>
    <Password>wFPRspbZAW05rN8XIKI9bW36eGleZQDt4UU3j+m3SjU=</Password>
    <Adress>Beer Sheva, Ben Gurion Blvd.</Adress>
    <Longitude>34.7913</Longitude>
    <Latitude>31.2518</Latitude>
    <DistanceType>airDistance</DistanceType>
  </Volunteer>
  <Volunteer>
    <Id>347978793</Id>
    <Name>Yosi</Name>
    <Email>Yosi@gmail.com</Email>
    <Phone>0557896521</Phone>
    <IsActive>true</IsActive>
    <Role>volunteer</Role>
    <MaximumDistance>35</MaximumDistance>
    <Password>N89wGaLiSS96VlcEOW8k1H+pXOrozqi7lWEprlzcuZU=</Password>
    <Adress>Ashdod, HaShalom St.</Adress>
    <Longitude>34.6553</Longitude>
    <Latitude>31.8044</Latitude>
    <DistanceType>airDistance</DistanceType>
  </Volunteer>
  <Volunteer>
    <Id>189848500</Id>
    <Name>Beni</Name>
    <Email>Beni@gmail.com</Email>
    <Phone>0509871234</Phone>
    <IsActive>true</IsActive>
    <Role>volunteer</Role>
    <MaximumDistance>22</MaximumDistance>
    <Password>z+G5u56o3OAem1AeQmK9jT3VG/X5bLovcRQfPyCyeuU=</Password>
    <Adress>Netanya, Herzl St.</Adress>
    <Longitude>34.8532</Longitude>
    <Latitude>32.3215</Latitude>
    <DistanceType>airDistance</DistanceType>
  </Volunteer>
  <Volunteer>
    <Id>588172916</Id>
    <Name>Tamar</Name>
    <Email>Tamar@gmail.com</Email>
    <Phone>0541123345</Phone>
    <IsActive>true</IsActive>
    <Role>volunteer</Role>
    <MaximumDistance>21</MaximumDistance>
    <Password>sqVt60IKxIal2bIeicMvUinzrxy0SM+wxoyc7yzwIBg=</Password>
    <Adress>Rishon LeZion, Neot Afeka St.</Adress>
    <Longitude>34.7925</Longitude>
    <Latitude>31.9706</Latitude>
    <DistanceType>airDistance</DistanceType>
  </Volunteer>
  <Volunteer>
    <Id>309984516</Id>
    <Name>Eli</Name>
    <Email>Eli@gmail.com</Email>
    <Phone>0537859513</Phone>
    <IsActive>true</IsActive>
    <Role>volunteer</Role>
    <MaximumDistance>40</MaximumDistance>
    <Password>+l92M5CNAojxa0jgqE29PFJjqzbK7bO5Lobyd6sQDRE=</Password>
    <Adress>Petah Tikva, HaSharon St.</Adress>
    <Longitude>34.8878</Longitude>
    <Latitude>32.084</Latitude>
    <DistanceType>airDistance</DistanceType>
  </Volunteer>
  <Volunteer>
    <Id>327260774</Id>
    <Name>Moshe</Name>
    <Email>Moshe@gmail.com</Email>
    <Phone>0523126578</Phone>
    <IsActive>true</IsActive>
    <Role>volunteer</Role>
    <MaximumDistance>44</MaximumDistance>
    <Password>s3SC6GTEVYSRDpu1rLAxR7Eojij2YD1RtJp5T3X99Ps=</Password>
    <Adress>Holon, Jabotinsky St.</Adress>
    <Longitude>34.7874</Longitude>
    <Latitude>32.0158</Latitude>
    <DistanceType>airDistance</DistanceType>
  </Volunteer>
  <Volunteer>
    <Id>204333488</Id>
    <Name>Chana</Name>
    <Email>Chana@gmail.com</Email>
    <Phone>0556549872</Phone>
    <IsActive>true</IsActive>
    <Role>volunteer</Role>
    <MaximumDistance>19</MaximumDistance>
    <Password>ODXdXOYpR3q1YDaTptCKlPRxGajr4N92cUmgko0C1zo=</Password>
    <Adress>Bnei Brak, Rabbi Akiva St.</Adress>
    <Longitude>34.8333</Longitude>
    <Latitude>32.0809</Latitude>
    <DistanceType>airDistance</DistanceType>
  </Volunteer>
  <Volunteer>
    <Id>998238828</Id>
    <Name>Ari</Name>
    <Email>Ari@gmail.com</Email>
    <Phone>0537892134</Phone>
    <IsActive>true</IsActive>
    <Role>volunteer</Role>
    <MaximumDistance>33</MaximumDistance>
    <Password>JrZWvI/oPhdGCj4HTHvB+rKq38ZRS13pCIPmfcUB/RE=</Password>
    <Adress>Rehovot, Herzl St.</Adress>
    <Longitude>34.8093</Longitude>
    <Latitude>31.8948</Latitude>
    <DistanceType>airDistance</DistanceType>
  </Volunteer>
  <Volunteer>
    <Id>297577561</Id>
    <Name>Chaim</Name>
    <Email>Chaim@gmail.com</Email>
    <Phone>0501256789</Phone>
    <IsActive>true</IsActive>
    <Role>volunteer</Role>
    <MaximumDistance>35</MaximumDistance>
    <Password>KKzE7is/UpjvcbWMJDZRVr3fNY3g+YKcU1MV79VxtmY=</Password>
    <Adress>Bat Yam, Ben Gurion Blvd.</Adress>
    <Longitude>34.7502</Longitude>
    <Latitude>32.0236</Latitude>
    <DistanceType>airDistance</DistanceType>
  </Volunteer>
  <Volunteer>
    <Id>198951386</Id>
    <Name>Shani</Name>
    <Email>Shani@gmail.com</Email>
    <Phone>0524567890</Phone>
    <IsActive>true</IsActive>
    <Role>volunteer</Role>
    <MaximumDistance>46</MaximumDistance>
    <Password>UpW/EfgrnakOs4FI1uh1Vw5/yhhNs3lS02D1JYOvbho=</Password>
    <Adress>Herzliya, Sokolov St.</Adress>
    <Longitude>34.8436</Longitude>
    <Latitude>32.1663</Latitude>
    <DistanceType>airDistance</DistanceType>
  </Volunteer>
  <Volunteer>
    <Id>401454343</Id>
    <Name>Yonatan</Name>
    <Email>Yonatan@gmail.com</Email>
    <Phone>0546543210</Phone>
    <IsActive>true</IsActive>
    <Role>volunteer</Role>
    <MaximumDistance>43</MaximumDistance>
    <Password>QCbPS+ktYg/ouLjbbmu4MOFhVyJHFBCAPgT4r7OtYK0=</Password>
    <Adress>Hadera, HaSharon Blvd.</Adress>
    <Longitude>34.9196</Longitude>
    <Latitude>32.434</Latitude>
    <DistanceType>airDistance</DistanceType>
  </Volunteer>
  <Volunteer>
    <Id>185206141</Id>
    <Name>David</Name>
    <Email>David@gmail.com</Email>
    <Phone>0551237894</Phone>
    <IsActive>false</IsActive>
    <Role>volunteer</Role>
    <MaximumDistance>5</MaximumDistance>
    <Password>Z0rxaY42JRQjKC2ZMta24pkQ53Gzp8KHCM8PlEJBKuA=</Password>
    <Adress>Eilat, HaTmarim St.</Adress>
    <Longitude>34.889062</Longitude>
    <Latitude>32.338841</Latitude>
    <DistanceType>airDistance</DistanceType>
  </Volunteer>
  <Volunteer>
    <Id>507360063</Id>
    <Name>Sar</Name>
    <Email>Sari@gmail.com</Email>
    <Phone>0503214571</Phone>
    <IsActive>true</IsActive>
    <Role>volunteer</Role>
    <MaximumDistance>39</MaximumDistance>
    <Password>Kjw3CLbc2xtgws0ynuMz7usZt++t2sx3D6BHbm7nPuc=</Password>
    <Adress>Jerusalem, King George St.</Adress>
    <Longitude>115.792619</Longitude>
    <Latitude>-31.897354</Latitude>
    <DistanceType>airDistance</DistanceType>
  </Volunteer>
</ArrayOfVolunteer>