<?xml version="1.0" encoding="utf-8"?>
<ArrayOfVolunteer>
  <Volunteer>
    <Id>671358252</Id>
    <Name>Sari</Name>
    <Email>Sari@gmail.com</Email>
    <Phone>050-321-4571</Phone>
    <IsActive>true</IsActive>
    <Role>volunteer</Role>
    <MaximumDistance>42</MaximumDistance>
    <Password>Sari45G92h</Password>
    <Adress>Jerusalem, King George St.</Adress>
    <Longitude>35.2137</Longitude>
    <Latitude>31.7683</Latitude>
    <DistanceType>airDistance</DistanceType>
  </Volunteer>
  <Volunteer>
    <Id>610581648</Id>
    <Name>Pnina</Name>
    <Email>Pnina@gmail.com</Email>
    <Phone>052-897-6524</Phone>
    <IsActive>true</IsActive>
    <Role>volunteer</Role>
    <MaximumDistance>31</MaximumDistance>
    <Password>Pnina87Z56j</Password>
    <Adress>Tel Aviv, Rothschild Blvd.</Adress>
    <Longitude>34.7818</Longitude>
    <Latitude>32.0853</Latitude>
    <DistanceType>airDistance</DistanceType>
  </Volunteer>
  <Volunteer>
    <Id>595782764</Id>
    <Name>Shira</Name>
    <Email>Shira@gmail.com</Email>
    <Phone>054-123-8745</Phone>
    <IsActive>true</IsActive>
    <Role>volunteer</Role>
    <MaximumDistance>48</MaximumDistance>
    <Password>Shira32X19b</Password>
    <Adress>Haifa, Carmel Beach</Adress>
    <Longitude>34.9896</Longitude>
    <Latitude>32.794</Latitude>
    <DistanceType>airDistance</DistanceType>
  </Volunteer>
  <Volunteer>
    <Id>383951121</Id>
    <Name>Chaya</Name>
    <Email>Chaya@gmail.com</Email>
    <Phone>053-549-1235</Phone>
    <IsActive>true</IsActive>
    <Role>volunteer</Role>
    <MaximumDistance>10</MaximumDistance>
    <Password>Chaya54L72k</Password>
    <Adress>Beer Sheva, Ben Gurion Blvd.</Adress>
    <Longitude>34.7913</Longitude>
    <Latitude>31.2518</Latitude>
    <DistanceType>airDistance</DistanceType>
  </Volunteer>
  <Volunteer>
    <Id>538238119</Id>
    <Name>Yosi</Name>
    <Email>Yosi@gmail.com</Email>
    <Phone>055-789-6521</Phone>
    <IsActive>true</IsActive>
    <Role>volunteer</Role>
    <MaximumDistance>27</MaximumDistance>
    <Password>Yosi18M91q</Password>
    <Adress>Ashdod, HaShalom St.</Adress>
    <Longitude>34.6553</Longitude>
    <Latitude>31.8044</Latitude>
    <DistanceType>airDistance</DistanceType>
  </Volunteer>
  <Volunteer>
    <Id>686274779</Id>
    <Name>Beni</Name>
    <Email>Beni@gmail.com</Email>
    <Phone>050-987-1234</Phone>
    <IsActive>true</IsActive>
    <Role>volunteer</Role>
    <MaximumDistance>13</MaximumDistance>
    <Password>Beni39P65a</Password>
    <Adress>Netanya, Herzl St.</Adress>
    <Longitude>34.8532</Longitude>
    <Latitude>32.3215</Latitude>
    <DistanceType>airDistance</DistanceType>
  </Volunteer>
  <Volunteer>
    <Id>984174864</Id>
    <Name>Tamar</Name>
    <Email>Tamar@gmail.com</Email>
    <Phone>054-112-3345</Phone>
    <IsActive>true</IsActive>
    <Role>volunteer</Role>
    <MaximumDistance>36</MaximumDistance>
    <Password>Tamar75V21n</Password>
    <Adress>Rishon LeZion, Neot Afeka St.</Adress>
    <Longitude>34.7925</Longitude>
    <Latitude>31.9706</Latitude>
    <DistanceType>airDistance</DistanceType>
  </Volunteer>
  <Volunteer>
    <Id>944445560</Id>
    <Name>Eli</Name>
    <Email>Eli@gmail.com</Email>
    <Phone>053-785-9513</Phone>
    <IsActive>true</IsActive>
    <Role>volunteer</Role>
    <MaximumDistance>29</MaximumDistance>
    <Password>Eli26W83f</Password>
    <Adress>Petah Tikva, HaSharon St.</Adress>
    <Longitude>34.8878</Longitude>
    <Latitude>32.084</Latitude>
    <DistanceType>airDistance</DistanceType>
  </Volunteer>
  <Volunteer>
    <Id>719166390</Id>
    <Name>Moshe</Name>
    <Email>Moshe@gmail.com</Email>
    <Phone>052-312-6578</Phone>
    <IsActive>true</IsActive>
    <Role>volunteer</Role>
    <MaximumDistance>48</MaximumDistance>
    <Password>Moshe90R47z</Password>
    <Adress>Holon, Jabotinsky St.</Adress>
    <Longitude>34.7874</Longitude>
    <Latitude>32.0158</Latitude>
    <DistanceType>airDistance</DistanceType>
  </Volunteer>
  <Volunteer>
    <Id>162466070</Id>
    <Name>Chana</Name>
    <Email>Chana@gmail.com</Email>
    <Phone>055-654-9872</Phone>
    <IsActive>true</IsActive>
    <Role>volunteer</Role>
    <MaximumDistance>40</MaximumDistance>
    <Password>Chana63S29m</Password>
    <Adress>Bnei Brak, Rabbi Akiva St.</Adress>
    <Longitude>34.8333</Longitude>
    <Latitude>32.0809</Latitude>
    <DistanceType>airDistance</DistanceType>
  </Volunteer>
  <Volunteer>
    <Id>849463546</Id>
    <Name>Ari</Name>
    <Email>Ari@gmail.com</Email>
    <Phone>053-789-2134</Phone>
    <IsActive>true</IsActive>
    <Role>volunteer</Role>
    <MaximumDistance>6</MaximumDistance>
    <Password>Ari42D78c</Password>
    <Adress>Rehovot, Herzl St.</Adress>
    <Longitude>34.8093</Longitude>
    <Latitude>31.8948</Latitude>
    <DistanceType>airDistance</DistanceType>
  </Volunteer>
  <Volunteer>
    <Id>766885257</Id>
    <Name>Chaim</Name>
    <Email>Chaim@gmail.com</Email>
    <Phone>050-125-6789</Phone>
    <IsActive>true</IsActive>
    <Role>volunteer</Role>
    <MaximumDistance>7</MaximumDistance>
    <Password>Chaim56H14p</Password>
    <Adress>Bat Yam, Ben Gurion Blvd.</Adress>
    <Longitude>34.7502</Longitude>
    <Latitude>32.0236</Latitude>
    <DistanceType>airDistance</DistanceType>
  </Volunteer>
  <Volunteer>
    <Id>316759140</Id>
    <Name>Shani</Name>
    <Email>Shani@gmail.com</Email>
    <Phone>052-456-7890</Phone>
    <IsActive>true</IsActive>
    <Role>volunteer</Role>
    <MaximumDistance>45</MaximumDistance>
    <Password>Shani81J67y</Password>
    <Adress>Herzliya, Sokolov St.</Adress>
    <Longitude>34.8436</Longitude>
    <Latitude>32.1663</Latitude>
    <DistanceType>airDistance</DistanceType>
  </Volunteer>
  <Volunteer>
    <Id>990687209</Id>
    <Name>Yonatan</Name>
    <Email>Yonatan@gmail.com</Email>
    <Phone>054-654-3210</Phone>
    <IsActive>true</IsActive>
    <Role>volunteer</Role>
    <MaximumDistance>46</MaximumDistance>
    <Password>Yonatan97K50x</Password>
    <Adress>Hadera, HaSharon Blvd.</Adress>
    <Longitude>34.9196</Longitude>
    <Latitude>32.434</Latitude>
    <DistanceType>airDistance</DistanceType>
  </Volunteer>
  <Volunteer>
    <Id>147609105</Id>
    <Name>David</Name>
    <Email>David@gmail.com</Email>
    <Phone>055-123-7894</Phone>
    <IsActive>true</IsActive>
    <Role>volunteer</Role>
    <MaximumDistance>49</MaximumDistance>
    <Password>David34Q85v</Password>
    <Adress>Eilat, HaTmarim St.</Adress>
    <Longitude>34.9482</Longitude>
    <Latitude>29.5581</Latitude>
    <DistanceType>airDistance</DistanceType>
  </Volunteer>
</ArrayOfVolunteer>