<?xml version="1.0" encoding="utf-8"?>
<ArrayOfVolunteer>
  <Volunteer>
    <Id>358169006</Id>
    <Name>Sari</Name>
    <Email>Sari@gmail.com</Email>
    <Phone>050-321-4571</Phone>
    <IsActive>true</IsActive>
    <Role>volunteer</Role>
    <MaximumDistance>7</MaximumDistance>
    <Password>W0L901Ef0CpoM8WZnO9jgCpL00vT+V/vhdOrpr0y8iw=</Password>
    <Adress>Jerusalem, King George St.</Adress>
    <Longitude>35.2137</Longitude>
    <Latitude>31.7683</Latitude>
    <DistanceType>airDistance</DistanceType>
  </Volunteer>
  <Volunteer>
    <Id>626096787</Id>
    <Name>Pnina</Name>
    <Email>Pnina@gmail.com</Email>
    <Phone>052-897-6524</Phone>
    <IsActive>true</IsActive>
    <Role>volunteer</Role>
    <MaximumDistance>18</MaximumDistance>
    <Password>pIU7VSs0lxrJI4NmGqZsRjQuFV7YOYjumwGWeG9zYbE=</Password>
    <Adress>Tel Aviv, Rothschild Blvd.</Adress>
    <Longitude>34.7818</Longitude>
    <Latitude>32.0853</Latitude>
    <DistanceType>airDistance</DistanceType>
  </Volunteer>
  <Volunteer>
    <Id>747895108</Id>
    <Name>Shira</Name>
    <Email>Shira@gmail.com</Email>
    <Phone>054-123-8745</Phone>
    <IsActive>true</IsActive>
    <Role>volunteer</Role>
    <MaximumDistance>38</MaximumDistance>
    <Password>n9/A36VjqhHJiUu3xEigt0DueVWXkmr5fTSWujtPDa8=</Password>
    <Adress>Haifa, Carmel Beach</Adress>
    <Longitude>34.9896</Longitude>
    <Latitude>32.794</Latitude>
    <DistanceType>airDistance</DistanceType>
  </Volunteer>
  <Volunteer>
    <Id>788359774</Id>
    <Name>Chaya</Name>
    <Email>Chaya@gmail.com</Email>
    <Phone>053-549-1235</Phone>
    <IsActive>true</IsActive>
    <Role>volunteer</Role>
    <MaximumDistance>45</MaximumDistance>
    <Password>NAG6mu5oFUd+/z+oIXJg7nK6dZvA7iQPATad8AvEsBc=</Password>
    <Adress>Beer Sheva, Ben Gurion Blvd.</Adress>
    <Longitude>34.7913</Longitude>
    <Latitude>31.2518</Latitude>
    <DistanceType>airDistance</DistanceType>
  </Volunteer>
  <Volunteer>
    <Id>943993652</Id>
    <Name>Yosi</Name>
    <Email>Yosi@gmail.com</Email>
    <Phone>055-789-6521</Phone>
    <IsActive>true</IsActive>
    <Role>volunteer</Role>
    <MaximumDistance>6</MaximumDistance>
    <Password>ZPuQOxxxIk8qVe4Cq06Hw8e0TsD59b4YvbbVYdBKm4E=</Password>
    <Adress>Ashdod, HaShalom St.</Adress>
    <Longitude>34.6553</Longitude>
    <Latitude>31.8044</Latitude>
    <DistanceType>airDistance</DistanceType>
  </Volunteer>
  <Volunteer>
    <Id>651942033</Id>
    <Name>Beni</Name>
    <Email>Beni@gmail.com</Email>
    <Phone>050-987-1234</Phone>
    <IsActive>true</IsActive>
    <Role>volunteer</Role>
    <MaximumDistance>27</MaximumDistance>
    <Password>77sSb+VjVePwmD2tXHw87dSijN8C7nPsFx+Eqfj55E0=</Password>
    <Adress>Netanya, Herzl St.</Adress>
    <Longitude>34.8532</Longitude>
    <Latitude>32.3215</Latitude>
    <DistanceType>airDistance</DistanceType>
  </Volunteer>
  <Volunteer>
    <Id>933407637</Id>
    <Name>Tamar</Name>
    <Email>Tamar@gmail.com</Email>
    <Phone>054-112-3345</Phone>
    <IsActive>true</IsActive>
    <Role>volunteer</Role>
    <MaximumDistance>30</MaximumDistance>
    <Password>wngSko9cvCmRMu6+RUEX3/p6Z4XvMKRFa2wMXqqZKtg=</Password>
    <Adress>Rishon LeZion, Neot Afeka St.</Adress>
    <Longitude>34.7925</Longitude>
    <Latitude>31.9706</Latitude>
    <DistanceType>airDistance</DistanceType>
  </Volunteer>
  <Volunteer>
    <Id>505481386</Id>
    <Name>Eli</Name>
    <Email>Eli@gmail.com</Email>
    <Phone>053-785-9513</Phone>
    <IsActive>true</IsActive>
    <Role>volunteer</Role>
    <MaximumDistance>12</MaximumDistance>
    <Password>LxofeaOaJs8R37DF/lghchwPMYNjd9GEd7YNDJc/D5g=</Password>
    <Adress>Petah Tikva, HaSharon St.</Adress>
    <Longitude>34.8878</Longitude>
    <Latitude>32.084</Latitude>
    <DistanceType>airDistance</DistanceType>
  </Volunteer>
  <Volunteer>
    <Id>453557856</Id>
    <Name>Moshe</Name>
    <Email>Moshe@gmail.com</Email>
    <Phone>052-312-6578</Phone>
    <IsActive>true</IsActive>
    <Role>volunteer</Role>
    <MaximumDistance>35</MaximumDistance>
    <Password>ROLlsrRq2Hw3AtRWTByuHmlF1IrrtpESEIM5g64dbLg=</Password>
    <Adress>Holon, Jabotinsky St.</Adress>
    <Longitude>34.7874</Longitude>
    <Latitude>32.0158</Latitude>
    <DistanceType>airDistance</DistanceType>
  </Volunteer>
  <Volunteer>
    <Id>318634923</Id>
    <Name>Chana</Name>
    <Email>Chana@gmail.com</Email>
    <Phone>055-654-9872</Phone>
    <IsActive>true</IsActive>
    <Role>volunteer</Role>
    <MaximumDistance>22</MaximumDistance>
    <Password>2nsTFe4nx6Tlz6f34VtGFVR6ovl1+GSWthN5sEij7FE=</Password>
    <Adress>Bnei Brak, Rabbi Akiva St.</Adress>
    <Longitude>34.8333</Longitude>
    <Latitude>32.0809</Latitude>
    <DistanceType>airDistance</DistanceType>
  </Volunteer>
  <Volunteer>
    <Id>103530160</Id>
    <Name>Ari</Name>
    <Email>Ari@gmail.com</Email>
    <Phone>053-789-2134</Phone>
    <IsActive>true</IsActive>
    <Role>volunteer</Role>
    <MaximumDistance>20</MaximumDistance>
    <Password>9Fwa9b+Tjrq4jI+Psr7Vd5Wqi3pViBbfyJ0AlSuODjs=</Password>
    <Adress>Rehovot, Herzl St.</Adress>
    <Longitude>34.8093</Longitude>
    <Latitude>31.8948</Latitude>
    <DistanceType>airDistance</DistanceType>
  </Volunteer>
  <Volunteer>
    <Id>480088107</Id>
    <Name>Chaim</Name>
    <Email>Chaim@gmail.com</Email>
    <Phone>050-125-6789</Phone>
    <IsActive>true</IsActive>
    <Role>volunteer</Role>
    <MaximumDistance>19</MaximumDistance>
    <Password>4H08l5Mlc/rWwsnek8DA99JSFzTJeLCQrVQv64xsA/0=</Password>
    <Adress>Bat Yam, Ben Gurion Blvd.</Adress>
    <Longitude>34.7502</Longitude>
    <Latitude>32.0236</Latitude>
    <DistanceType>airDistance</DistanceType>
  </Volunteer>
  <Volunteer>
    <Id>254611883</Id>
    <Name>Shani</Name>
    <Email>Shani@gmail.com</Email>
    <Phone>052-456-7890</Phone>
    <IsActive>true</IsActive>
    <Role>volunteer</Role>
    <MaximumDistance>14</MaximumDistance>
    <Password>4RuzNBMLIbCO4JSGy6bXvQozBgJ4InmIoztxDnpyqqQ=</Password>
    <Adress>Herzliya, Sokolov St.</Adress>
    <Longitude>34.8436</Longitude>
    <Latitude>32.1663</Latitude>
    <DistanceType>airDistance</DistanceType>
  </Volunteer>
  <Volunteer>
    <Id>527280141</Id>
    <Name>Yonatan</Name>
    <Email>Yonatan@gmail.com</Email>
    <Phone>054-654-3210</Phone>
    <IsActive>true</IsActive>
    <Role>volunteer</Role>
    <MaximumDistance>29</MaximumDistance>
    <Password>NsdyKRJ1nU7xRVlNBlFRQm9B4GTMcr2nl6G9vVix7yY=</Password>
    <Adress>Hadera, HaSharon Blvd.</Adress>
    <Longitude>34.9196</Longitude>
    <Latitude>32.434</Latitude>
    <DistanceType>airDistance</DistanceType>
  </Volunteer>
  <Volunteer>
    <Id>646962770</Id>
    <Name>David</Name>
    <Email>David@gmail.com</Email>
    <Phone>055-123-7894</Phone>
    <IsActive>true</IsActive>
    <Role>volunteer</Role>
    <MaximumDistance>30</MaximumDistance>
    <Password>Rn0chuIVa14xX365ycVMS3+HSSYHUhXyE4T0YUX3rk0=</Password>
    <Adress>Eilat, HaTmarim St.</Adress>
    <Longitude>34.9482</Longitude>
    <Latitude>29.5581</Latitude>
    <DistanceType>airDistance</DistanceType>
  </Volunteer>
</ArrayOfVolunteer>